[
	{
		"name": "1 in 12 Club",
		"area": "Bradford",
		"sublocation": "",
		"address": "21-23 Albion Street",
		"postcode": "BD1 2LY",
		"lat": 53.794462,
		"lon": -1.758122
	},
	{
		"name": "Alexandra WMC",
		"area": "Barnsley",
		"sublocation": "Royston",
		"address": "High Street",
		"postcode": "S71 4RF",
		"lat": 53.599086,
		"lon": -1.4622674
	},
	{
		"name": "The Abbey",
		"area": "Derby",
		"sublocation": "Darley Abbey",
		"address": "Darley Street",
		"postcode": "DE22 1DX",
		"lat": 52.94211,
		"lon": -1.47652
	},
	{
		"name": "The Anchor Tap",
		"area": "London",
		"sublocation": "Bermondsey",
		"address": "28, Horselydown Lane",
		"postcode": "SE1 2LN",
		"lat": 51.50338811,
		"lon": -0.0760998
	},
	{
		"name": "The Anerley Arms",
		"area": "London",
		"sublocation": "Anerley",
		"address": "2, Ridsdale Road",
		"postcode": "SE20 8AG",
		"lat": 51.41253,
		"lon": -0.06632
	},
	{
		"name": "The Angel",
		"area": "London",
		"sublocation": "Soho",
		"address": "61, St. Giles High Street",
		"postcode": "WC2H 8LE",
		"lat": 51.51547,
		"lon": -0.12768
	},
	{
		"name": "The Angel",
		"area": "London",
		"sublocation": "Bermondsey",
		"address": "101 Bermondsey Wall East",
		"postcode": "SE16 4NB",
		"lat": 51.500515,
		"lon": -0.058837
	},
	{
		"name": "The Angel and White Horse",
		"area": "Tadcaster",
		"sublocation": "",
		"address": "23 Bridge Street",
		"postcode": "LS24 9AW",
		"lat": 53.88423,
		"lon": -1.26075
	},
	{
		"name": "The Angel in the Fields",
		"area": "London",
		"sublocation": "",
		"address": "37 Thayer Street",
		"postcode": "W1U 2QU",
		"lat": 51.51768,
		"lon": -0.15017
	},
	{
		"name": "The Angel Inn",
		"area": " Leeds",
		"sublocation": "",
		"address": "Angel Inn Yard",
		"postcode": "LS1 6LN",
		"lat": 53.79815,
		"lon": -1.54269
	},
	{
		"name": "The Bay Horse",
		"area": " Tadcaster",
		"sublocation": "",
		"address": "11 Commercial Street",
		"postcode": "LS24 8AB",
		"lat": 53.88596449,
		"lon": -1.25886385
	},
	{
		"name": "The Blue Posts",
		"area": "London",
		"sublocation": "Fitzrovia",
		"address": "81 Newman Street",
		"postcode": "W1T 3ET",
		"lat": 51.51706075,
		"lon": -0.13537106
	},
	{
		"name": "The Bricklayers Arms",
		"area": "London",
		"sublocation": "Fitzrovia",
		"address": "31 Gresse Street",
		"postcode": "W1T 1QS",
		"lat": 51.5177116,
		"lon": -0.13346974
	},
	{
		"name": "The Captain Kidd",
		"area": "London",
		"sublocation": "Wapping",
		"address": "108 Wapping High Street",
		"postcode": "E1W 2NE ",
		"lat": 51.50303,
		"lon": -0.0601
	},
	{
		"name": "Windsor Castle",
		"area": "London",
		"sublocation": "Victoria",
		"address": "23 Francis Street",
		"postcode": "SW1P 1DN",
		"lat": 51.49521001,
		"lon": -0.13784945
	},
	{
		"name": "The Champion",
		"area": "London",
		"sublocation": "Fitzrovia",
		"address": "13 Wells Street",
		"postcode": "W1T 3PA",
		"lat": 51.517209,
		"lon": -0.137415
	},
	{
		"name": "The Chandos",
		"area": "London",
		"sublocation": "Covent Garden",
		"address": "29 St Martins Lane",
		"postcode": "WC2N 4ER",
		"lat": 51.50955505,
		"lon": -0.12683632
	},
	{
		"name": "The Cheshire Midland",
		"area": "Altrincham",
		"sublocation": "",
		"address": "Ashley Road",
		"postcode": "WA14 2UL",
		"lat": 53.378247,
		"lon": -2.347708
	},
	{
		"name": "The Circus Bar",
		"area": " Cheltenham",
		"sublocation": "",
		"address": "5, Queens Circus",
		"postcode": "GL50 1RX",
		"lat": 51.89665,
		"lon": -2.08092
	},
	{
		"name": "The Cittie of Yorke",
		"area": "London",
		"sublocation": "",
		"address": "22 High Holborn",
		"postcode": "WC1V 6BN",
		"lat": 51.51849,
		"lon": -0.11258
	},
	{
		"name": "The Cock",
		"area": "London",
		"sublocation": "",
		"address": "27 Great Portland Street",
		"postcode": "W1W 8QE",
		"lat": 51.51670958,
		"lon": -0.14134457
	},
	{
		"name": "The Colpitts Hotel",
		"area": " Durham",
		"sublocation": "",
		"address": "Hawthorn Terrace",
		"postcode": "DH1 4EL",
		"lat": 54.77604065,
		"lon": -1.58510432
	},
	{
		"name": "The Cramond Inn",
		"area": " Cramond",
		"sublocation": "",
		"address": "30 Cramond Glebe Road",
		"postcode": "EH4 6NT",
		"lat": 55.97987451,
		"lon": -3.29999455
	},
	{
		"name": "The Cricketers Arms",
		"area": "Selby",
		"sublocation": "",
		"address": "Market Place, Selby",
		"postcode": "YO8 4PB",
		"lat": 53.78386688,
		"lon": -1.06972953
	},
	{
		"name": "The Crown",
		"area": "London",
		"sublocation": "Bloomsbury",
		"address": "51, New Oxford Street",
		"postcode": "WC1A 1BL",
		"lat": 51.51684,
		"lon": -0.12663
	},
	{
		"name": "The Crown and Sugarloaf",
		"area": "London",
		"sublocation": "",
		"address": "98-99 Fleet Street",
		"postcode": "EC4Y 1DE",
		"lat": 51.514017,
		"lon": -0.104812
	},
	{
		"name": "The Dover Castle",
		"area": "London",
		"sublocation": "Marylebone",
		"address": "43, Weymouth Mews",
		"postcode": "W1G 7EH",
		"lat": 51.51994,
		"lon": -0.14616
	},
	{
		"name": "The Duke of Argyll",
		"area": "London",
		"sublocation": "Soho",
		"address": "37, Brewer Street",
		"postcode": "W1D 7LQ",
		"lat": 51.51175,
		"lon": -0.13457
	},
	{
		"name": "The Earl of Lonsdale",
		"area": "London",
		"sublocation": "Notting Hill",
		"address": "277-281 Westbourne Grove",
		"postcode": "W11 2QA",
		"lat": 51.51328,
		"lon": -0.20338
	},
	{
		"name": "The Fitzroy Tavern",
		"area": "London",
		"sublocation": "Fitzrovia",
		"address": "16 Charlotte Street",
		"postcode": "W1T 2NA",
		"lat": 51.51856782,
		"lon": -0.13473574
	},
	{
		"name": "The Gazebo",
		"area": "London",
		"sublocation": "Kingston Upon Thames",
		"address": "Kings Passage, Thames Street",
		"postcode": "KT1 1PE",
		"lat": 51.41053,
		"lon": -0.30666
	},
	{
		"name": "The Glasshouse Stores",
		"area": "London",
		"sublocation": "Soho",
		"address": "55 Brewer Street",
		"postcode": "W1F 9UJ",
		"lat": 51.511431,
		"lon": -0.135341
	},
	{
		"name": "The Green Dragon",
		"area": " Stockton-On-Tees",
		"sublocation": "",
		"address": "8 Finkle Street",
		"postcode": "TS18 1AR",
		"lat": 54.5642,
		"lon": -1.31181
	},
	{
		"name": "The Horse and Groom",
		"area": "London",
		"sublocation": "",
		"address": "128, Great Portland Street",
		"postcode": "W1W 6PX ",
		"lat": 51.52005,
		"lon": -0.14249
	},
	{
		"name": "Howden Arms",
		"area": " Tadcaster",
		"sublocation": "",
		"address": "40 High Street",
		"postcode": "LS24 9AT",
		"lat": 53.88356,
		"lon": -1.26263
	},
	{
		"name": "The John Snow",
		"area": "London",
		"sublocation": "Soho",
		"address": "39, Broadwick Street",
		"postcode": "W1F 9QP",
		"lat": 51.5133461,
		"lon": -0.1365602
	},
	{
		"name": "The King William",
		"area": " Bristol",
		"sublocation": "",
		"address": "20 King Street",
		"postcode": "BS1 4EF",
		"lat": 51.4517,
		"lon": -2.5945
	},
	{
		"name": "The Kings Arms",
		"area": " York",
		"sublocation": "",
		"address": "Kings Staith",
		"postcode": "YO1 9SN",
		"lat": 53.95694,
		"lon": -1.08287
	},
	{
		"name": "The Lyceum",
		"area": "London",
		"sublocation": "",
		"address": "354, Strand",
		"postcode": "WC2R 0HS",
		"lat": 51.51123,
		"lon": -0.11989
	},
	{
		"name": "The Malt Shovels",
		"area": " Altrincham",
		"sublocation": "",
		"address": "68 Stamford Street",
		"postcode": "WA14 1EY",
		"lat": 53.38909,
		"lon": -2.34798
	},
	{
		"name": "The Nag's Head Hotel",
		"area": "Leeds",
		"sublocation": "Chapel Allerton",
		"address": "10 Town Street",
		"postcode": "LS7 4NB",
		"lat": 53.82875,
		"lon": -1.537228
	},
	{
		"name": "The Old Boot Inn",
		"area": " Chester",
		"sublocation": "",
		"address": "9 Eastgate Street",
		"postcode": "CH1 1LG ",
		"lat": 53.19084,
		"lon": -2.88898
	},
	{
		"name": "The Ordnance Arms",
		"area": "London",
		"sublocation": "St. John's Wood",
		"address": "29 Ordnance Hill",
		"postcode": "NW8 6PS",
		"lat": 51.5360605,
		"lon": -0.17185607
	},
	{
		"name": "The Princess Louise",
		"area": "London",
		"sublocation": "",
		"address": "208-209 High Holborn",
		"postcode": "WC1V 7BW",
		"lat": 51.51727,
		"lon": -0.12167
	},
	{
		"name": "The Red Lion",
		"area": "London",
		"sublocation": "Soho",
		"address": "14, Kingly Street",
		"postcode": "W1B 5PP",
		"lat": 51.512615,
		"lon": -0.139113
	},
	{
		"name": "The Rising Sun",
		"area": "London",
		"sublocation": "Smithfield",
		"address": "38, Cloth Fair",
		"postcode": "EC1A 7JQ",
		"lat": 51.51912,
		"lon": -0.09974
	},
	{
		"name": "The Eagle",
		"area": "London",
		"sublocation": "Maida Vale",
		"address": "15, Clifton Road",
		"postcode": "W9 1SY",
		"lat": 51.52527,
		"lon": -0.17944
	},
	{
		"name": "The Rose and Crown",
		"area": " Askham Richard",
		"sublocation": "",
		"address": "Main Street",
		"postcode": "YO23 3PT",
		"lat": 53.92411,
		"lon": -1.18333
	},
	{
		"name": "The Royal Oak",
		"area": " Tadcaster",
		"sublocation": "",
		"address": "8 Wighill Lane",
		"postcode": "LS24 8EX",
		"lat": 53.88735089,
		"lon": -1.25767295
	},
	{
		"name": "The Royal Oak",
		"area": "Sheffield",
		"sublocation": " Ulley",
		"address": "12 Turnshaw Road",
		"postcode": "S26 3YG",
		"lat": 53.38194,
		"lon": -1.30162
	},
	{
		"name": "The Seahorse Hotel",
		"area": "York",
		"sublocation": "",
		"address": "4 Fawcett Street",
		"postcode": "YO10 4AH",
		"lat": 53.95325,
		"lon": -1.07573
	},
	{
		"name": "The Sun Inn",
		"area": "York",
		"sublocation": " Long Marston",
		"address": "York Road",
		"postcode": "YO26 7PG",
		"lat": 53.95418,
		"lon": -1.23624
	},
	{
		"name": "The Swan & Three Cygnets",
		"area": "Elvet Bridge",
		"sublocation": "",
		"address": "Durham",
		"postcode": "DH1 3AG",
		"lat": 54.77585191,
		"lon": -1.57276616
	},
	{
		"name": "The Town Wharf",
		"area": "London",
		"sublocation": "Old Isleworth",
		"address": "Swan Street",
		"postcode": "TW7 6RJ",
		"lat": 51.46884,
		"lon": -0.32313
	},
	{
		"name": "The Wellington",
		"area": " York",
		"sublocation": "",
		"address": "47, Alma Terrace, off Fulford Road",
		"postcode": "YO10 4DL",
		"lat": 53.94734,
		"lon": -1.07756
	},
	{
		"name": "The White Horse",
		"area": "London",
		"sublocation": "Soho",
		"address": "45 Rupert Street",
		"postcode": "W1D 7PB",
		"lat": 51.51183221,
		"lon": -0.13354202
	},
	{
		"name": "The Yorkshire Grey",
		"area": "London",
		"sublocation": "Fitzrovia",
		"address": "46 Langham Street",
		"postcode": "W1W 7AX",
		"lat": 51.51902179,
		"lon": -0.14138762
	},
	{
		"name": "The Three Goats Heads",
		"area": " Oxford",
		"sublocation": "",
		"address": "3A St. Michaels Street",
		"postcode": "OX1 2DR",
		"lat": 51.75336,
		"lon": -1.25929
	},
	{
		"name": "Ye Olde Cheshire Cheese",
		"area": "London",
		"sublocation": "",
		"address": "Wine Office Court, 145 Fleet Street",
		"postcode": "EC4A 2BU",
		"lat": 51.51438,
		"lon": -0.10735
	},
	{
		"name": "Ye Olde Swiss Cottage",
		"area": "London",
		"sublocation": "Swiss Cottage",
		"address": "98 Finchley Road",
		"postcode": "NW3 5EL",
		"lat": 51.54245,
		"lon": -0.17449
	},
	{
		"name": "Ye Olde White Horse",
		"area": "Spalding",
		"sublocation": "",
		"address": "Churchgate",
		"postcode": "PE11 2RA",
		"lat": 52.784843,
		"lon": -0.147833
	},
	{
		"name": "The Burns Hotel (ex Hansom Cab)",
		"area": "York",
		"sublocation": "",
		"address": "23 Market Strett",
		"postcode": "YO1 8SL",
		"lat": 53.95885049,
		"lon": -1.081659794
	},
	{
		"name": "The Ivanhoe ",
		"area": "Doncaster",
		"sublocation": "Sprotbrough",
		"address": "Melton Road",
		"postcode": "DN5 7NS",
		"lat": 53.51494976,
		"lon": -1.18331534
	},
	{
		"name": "The Botolph Arms",
		"area": "Peterborough",
		"sublocation": "Orton Longueville",
		"address": "465 Oundle Road",
		"postcode": "PE2 7DD",
		"lat": 52.55988365,
		"lon": -0.26957256
	},
	{
		"name": "The Brigadier Gerard",
		"area": "York",
		"sublocation": "",
		"address": "84 Monkgate",
		"postcode": "YO31 7PF",
		"lat": 53.964493,
		"lon": -1.074536
	},
	{
		"name": "The York Arms",
		"area": "York",
		"sublocation": "",
		"address": "26 High Petergate",
		"postcode": "YO1 7EH",
		"lat": 53.962246,
		"lon": -1.083956
	},
	{
		"name": "The Rose of York",
		"area": "London",
		"sublocation": "Richmond Upon Thames",
		"address": "Petersham Road",
		"postcode": "TW10 6UY",
		"lat": 51.45063,
		"lon": -0.300192
	},
	{
		"name": "Whitegates Hotel",
		"area": "Mansfield",
		"sublocation": "Forest Town",
		"address": "Clipstone Road East",
		"postcode": "NG19 0HS",
		"lat": 53.158036,
		"lon": -1.145797
	},
	{
		"name": "The Tiger Inn",
		"area": "York",
		"sublocation": "Haxby",
		"address": "29 The Village",
		"postcode": "YO32 3HS",
		"lat": 54.01615517,
		"lon": -1.07305952
	},
	{
		"name": "The Royal George",
		"area": "London",
		"sublocation": "Deptford",
		"address": "85 Tanners Hill",
		"postcode": "SE8 4QD",
		"lat": 51.471867,
		"lon": -0.028678
	},
	{
		"name": "The Hare and Hounds Inn",
		"area": "Stutton",
		"sublocation": "",
		"address": "Manor Road",
		"postcode": "LS24 9BR",
		"lat": 53.86665098,
		"lon": -1.27165159
	},
	{
		"name": "The Old Red Lion",
		"area": "Leeds",
		"sublocation": "",
		"address": "2 Meadow Lane",
		"postcode": "LS1 7BT",
		"lat": 53.79285,
		"lon": -1.542281
	},
	{
		"name": "The Duncan",
		"area": "Leeds",
		"sublocation": "",
		"address": "Duncan Street",
		"postcode": "LS1 6DQ",
		"lat": 53.79583693,
		"lon": -1.54139317
	},
	{
		"name": "The General Elliot",
		"area": "Leeds",
		"sublocation": "",
		"address": "33 Vicar Lane",
		"postcode": "LS1 6DS",
		"lat": 53.79705774,
		"lon": -1.54042771
	},
	{
		"name": "The Barley Corn",
		"area": "Leeds",
		"sublocation": "Scholes",
		"address": "68 Main Street",
		"postcode": "LS15 4DH",
		"lat": 53.823608,
		"lon": -1.420627
	},
	{
		"name": "The Eagle Tavern",
		"area": "Leeds",
		"sublocation": "",
		"address": "North Street",
		"postcode": "LS7 1AF",
		"lat": 53.805986,
		"lon": -1.535361
	},
	{
		"name": "The Moorhouse Inn",
		"area": "Leeds",
		"sublocation": "",
		"address": "Moor Crescent",
		"postcode": "LS11 5NQ",
		"lat": 53.781409,
		"lon": -1.543483
	},
	{
		"name": "The New Inn",
		"area": "Leeds",
		"sublocation": "Gildersome",
		"address": "Church Street",
		"postcode": "LS27 7AE",
		"lat": 53.759824,
		"lon": -1.634388
	},
	{
		"name": "The Butchers Arms",
		"area": "Leeds",
		"sublocation": "Pudsey",
		"address": "30, Church Lane",
		"postcode": "LS28 7RF",
		"lat": 53.795062,
		"lon": -1.664933
	},
	{
		"name": "The Hark To Topper",
		"area": "Oldham",
		"sublocation": "",
		"address": "Bow Street",
		"postcode": "OL1 1SJ",
		"lat": 53.54197123,
		"lon": -2.10829427
	},
	{
		"name": "The Ye Olde Blue Bell (The Blue Bell)",
		"area": "Preston",
		"sublocation": "",
		"address": "114 Church Street",
		"postcode": "PR1 3BS",
		"lat": 53.75992101,
		"lon": -2.69313117
	},
	{
		"name": "The Fox & Hounds",
		"area": "Tadcaster",
		"sublocation": "",
		"address": "18 Leeds Road",
		"postcode": "LS24 9HB",
		"lat": 53.8827012,
		"lon": -1.26510968
	},
	{
		"name": "The Britannia Inn",
		"area": "Tadcaster",
		"sublocation": "",
		"address": "2 Commercial Street",
		"postcode": "LS24 8AA",
		"lat": 53.88525764,
		"lon": -1.25927856
	},
	{
		"name": "The Railway Inn",
		"area": "Spofforth",
		"sublocation": "",
		"address": "Park Terrace",
		"postcode": "HG3 1BW",
		"lat": 53.95012554,
		"lon": -1.44135763
	},
	{
		"name": "Widow Cullen's Well",
		"area": "Lincoln",
		"sublocation": "",
		"address": "29, Steep Hill",
		"postcode": "LN2 1LU",
		"lat": 53.23337718,
		"lon": -0.53855826
	},
	{
		"name": "The Golden Lion",
		"area": "Bourne",
		"sublocation": "",
		"address": "49, West Street",
		"postcode": "PE10 9NB",
		"lat": 52.76793568,
		"lon": -0.37887563
	},
	{
		"name": "Sinclair's Oyster Bar",
		"area": "Manchester",
		"sublocation": "",
		"address": "2 Cathedral Gates",
		"postcode": "M3 1SW",
		"lat": 53.48448956,
		"lon": -2.24382629
	},
	{
		"name": "The Tivoli",
		"area": "Morecambe",
		"sublocation": "",
		"address": "244 Marine Road Central",
		"postcode": "LA4 4BJ",
		"lat": 54.07263815,
		"lon": -2.86797096
	},
	{
		"name": "The Brown Bear",
		"area": "Sheffield",
		"sublocation": "",
		"address": "109 Norfolk Street",
		"postcode": "S1 2JE",
		"lat": 53.38055879,
		"lon": -1.46822264
	},
	{
		"name": "The Sir Gawain and The Green Knight",
		"area": "Deeside",
		"sublocation": "Connahs Quay",
		"address": "Golftyn Lane",
		"postcode": "CH5 4BH",
		"lat": 53.22330176,
		"lon": -3.07596018
	},
	{
		"name": "The Falcon",
		"area": "Chester",
		"sublocation": "",
		"address": "Lower Bridge Street",
		"postcode": "CH1 1RS",
		"lat": 53.18743171,
		"lon": -2.89000799
	},
	{
		"name": "The Golden Lion",
		"area": "Frodsham",
		"sublocation": "",
		"address": "Main Street",
		"postcode": "WA6 7AR",
		"lat": 53.29533656,
		"lon": -2.72674729
	},
	{
		"name": "The Belle Monte Hotel",
		"area": "Frodsham",
		"sublocation": "",
		"address": "Bellemonte Road",
		"postcode": "WA6 6BJ",
		"lat": 53.28690968,
		"lon": -2.72098591
	},
	{
		"name": "The Wortley Almshouses",
		"area": "Peterborough",
		"sublocation": "",
		"address": "Westgate",
		"postcode": "PE1 1QA",
		"lat": 52.57527394,
		"lon": -0.24528553
	},
	{
		"name": "Ye Olde Murenger House",
		"area": "Newport",
		"sublocation": "",
		"address": "53 High Street",
		"postcode": "NP20 1GA",
		"lat": 51.58914935,
		"lon": -2.99726953
	},
	{
		"name": "The Waterguard",
		"area": "Cardiff",
		"sublocation": "",
		"address": "Harbour Drive",
		"postcode": "CF10 4PA",
		"lat": 51.46230278,
		"lon": -3.16137244
	},
	{
		"name": "The Lion of Vienna",
		"area": "Bolton",
		"sublocation": "",
		"address": "158, Chorley New Road",
		"postcode": "BL1 4PE",
		"lat": 53.58018905,
		"lon": -2.45691439
	},
	{
		"name": "The Bridgewater Hotel",
		"area": "Farnworth",
		"sublocation": "",
		"address": "27 Buckley Lane",
		"postcode": "BL4 9PF",
		"lat": 53.54225015,
		"lon": -2.40144094
	},
	{
		"name": "The St Marys Vaults",
		"area": "Stamford",
		"sublocation": "",
		"address": "19, St. Marys Street",
		"postcode": "PE9 2DG",
		"lat": 52.65190785,
		"lon": -0.47754069
	},
	{
		"name": "The Victoria Hotel",
		"area": "Blackpool",
		"sublocation": "Cleveleys",
		"address": "183 Victoria Road West",
		"postcode": "FY5 3PZ",
		"lat": 53.8756192,
		"lon": -3.0306868
	},
	{
		"name": "The Bispham Hotel",
		"area": "Blackpool",
		"sublocation": "Bispham",
		"address": "Red Bank Road",
		"postcode": "FY2 9HY",
		"lat": 53.84969416,
		"lon": -3.04956955
	},
	{
		"name": "The Petre Arms",
		"area": "Blackburn",
		"sublocation": "Langho",
		"address": "Whalley Road",
		"postcode": "BB6 8AB",
		"lat": 53.80953639,
		"lon": -2.44109166
	},
	{
		"name": "The Greyhound Inn",
		"area": "Accrington",
		"sublocation": "Altham West",
		"address": "Whalley Road",
		"postcode": "BB5 5EF",
		"lat": 53.76752018,
		"lon": -2.37569404
	},
	{
		"name": "Tim Bobbin Hotel",
		"area": "Burnley",
		"sublocation": "",
		"address": "319 Padiham Road",
		"postcode": "BB12 6PR",
		"lat": 53.79347708,
		"lon": -2.26947588
	},
	{
		"name": "The Red Lion Hotel",
		"area": "Colne",
		"sublocation": "",
		"address": "31 Market Street",
		"postcode": "BB8 0LJ",
		"lat": 53.85730567,
		"lon": -2.16713083
	},
	{
		"name": "The Turf Tavern",
		"area": "Rochdale",
		"sublocation": "",
		"address": "564 Edenfield Road",
		"postcode": "OL12 7QJ",
		"lat": 53.62260415,
		"lon": -2.19852915
	},
	{
		"name": "The Eagle",
		"area": "Rochdale",
		"sublocation": "",
		"address": "59 Oldham Road",
		"postcode": "OL16 5QJ",
		"lat": 53.61314088,
		"lon": -2.1515288
	},
	{
		"name": "The Queens Head",
		"area": "Stockport",
		"sublocation": "",
		"address": "12 Little Underbank",
		"postcode": "SK1 1JT",
		"lat": 53.41098819,
		"lon": -2.1575289
	},
	{
		"name": "The Sun in September",
		"area": "Manchester",
		"sublocation": "",
		"address": "588 Burnage Lane",
		"postcode": "M19 1NA",
		"lat": 53.42145416,
		"lon": -2.21072783
	},
	{
		"name": "The Vine",
		"area": "Altrincham",
		"sublocation": "Dunham Massey",
		"address": "Barns Lane",
		"postcode": "WA14 5RU",
		"lat": 53.38783306,
		"lon": -2.41592219
	},
	{
		"name": "The Windmill Inn",
		"area": "Manchester",
		"sublocation": "Carrington",
		"address": "Manchester Road",
		"postcode": "M31 4BD",
		"lat": 53.43153723,
		"lon": -2.39128878
	},
	{
		"name": "The Railway Tavern",
		"area": "Manchester",
		"sublocation": "Flixton, Urmston",
		"address": "142 Irlam Road",
		"postcode": "M41 6NA",
		"lat": 53.44813735,
		"lon": -2.39392807
	},
	{
		"name": "The Albert Edward",
		"area": "Eccles",
		"sublocation": "",
		"address": "Church Street",
		"postcode": "M30 0LS",
		"lat": 53.48317602,
		"lon": -2.33889987
	},
	{
		"name": "The Bird in Hand",
		"area": "Knutsford",
		"sublocation": "",
		"address": "Knolls Green Village",
		"postcode": "WA16 7BW",
		"lat": 53.31188889,
		"lon": -2.297964
	},
	{
		"name": "The Whipping Stocks",
		"area": "Knutsford",
		"sublocation": "Over Peover",
		"address": "Stocks Lane",
		"postcode": "WA16 9EX",
		"lat": 53.26876604,
		"lon": -2.34938195
	},
	{
		"name": "The Swan",
		"area": "Holmes Chapel",
		"sublocation": "",
		"address": "Station Road",
		"postcode": "CW4 7AU",
		"lat": 53.19905807,
		"lon": -2.35201319
	},
	{
		"name": "The Malt Shovel",
		"area": "Elland",
		"sublocation": "",
		"address": "8 Briggate",
		"postcode": "HX5 9DP",
		"lat": 53.68768692,
		"lon": -1.83927139
	},
	{
		"name": "The Boar's Head",
		"area": "Stockport",
		"sublocation": "",
		"address": "2 Vernon Street",
		"postcode": "SK1 1TY",
		"lat": 53.4122656,
		"lon": -2.15670814
	},
	{
		"name": "The Agar Arms",
		"area": "York",
		"sublocation": "",
		"address": "Warthill",
		"postcode": "YO19 5XW",
		"lat": 53.98844692,
		"lon": -0.97061386
	},
	{
		"name": "The Albion Inn",
		"area": "Wakefield",
		"sublocation": "Eastmoor",
		"address": "94, Stanley Road ",
		"postcode": "WF1 4LR",
		"lat": 53.68581146,
		"lon": -1.48872796
	},
	{
		"name": "The Angler's Retreat (Freehouse selling Sam Smith's beers)",
		"area": "Wakefield",
		"sublocation": "Wintersett",
		"address": "Ferry Top Lane",
		"postcode": "WF4 2EB",
		"lat": 53.63621347,
		"lon": -1.42372999
	},
	{
		"name": "The Bath Hotel",
		"area": "Dewsbury",
		"sublocation": "",
		"address": "Halifax Road",
		"postcode": "WF13 2AL",
		"lat": 53.69555064,
		"lon": -1.63492981
	},
	{
		"name": "The Bay Horse",
		"area": "Richmond",
		"sublocation": "",
		"address": "Tunstall",
		"postcode": "DL10 7QS",
		"lat": 54.35678741,
		"lon": -1.67027613
	},
	{
		"name": "The Berkeley Hotel",
		"area": "Scunthorpe",
		"sublocation": "",
		"address": "Doncaster Road",
		"postcode": "DN15 7DS",
		"lat": 53.59041115,
		"lon": -0.68398227
	},
	{
		"name": "The Blacksmiths Arms",
		"area": "York",
		"sublocation": "",
		"address": "Farlington",
		"postcode": "YO61 1NW",
		"lat": 54.10088002,
		"lon": -1.06240978
	},
	{
		"name": "The Blacksmiths Arms",
		"area": "York",
		"sublocation": "Skelton",
		"address": "Shipton Road",
		"postcode": "YO30 1XW",
		"lat": 53.99944032,
		"lon": -1.13628855
	},
	{
		"name": "The Brown Cow",
		"area": "York",
		"sublocation": "",
		"address": "36 Hope Street",
		"postcode": "YO10 4UR",
		"lat": 53.95478961,
		"lon": -1.07311716
	},
	{
		"name": "The Brown Cow Inn",
		"area": "Bradford",
		"sublocation": "",
		"address": "886 Little Horton Lane",
		"postcode": "BD5 9EL",
		"lat": 53.7761599,
		"lon": -1.77234174
	},
	{
		"name": "The Brunton Arms",
		"area": "Middlesbrough",
		"sublocation": "Nunthorpe",
		"address": "Gypsy Lane",
		"postcode": "TS7 0AQ",
		"lat": 54.53117924,
		"lon": -1.18477253
	},
	{
		"name": "The Bull's Head",
		"area": "Wakefield",
		"sublocation": "Tingley",
		"address": "Dewsbury Road",
		"postcode": "WF3 1LY",
		"lat": 53.72521011,
		"lon": -1.58545378
	},
	{
		"name": "The Bullet Sports and Social Club",
		"area": "Barnsley",
		"sublocation": "Grimethorpe",
		"address": "63 Brierley Road",
		"postcode": "S72 7EJ",
		"lat": 53.57890077,
		"lon": -1.37841424
	},
	{
		"name": "The Castle",
		"area": "York",
		"sublocation": "Sheriff Hutton",
		"address": "Main Street",
		"postcode": "YO60 6ST",
		"lat": 54.08880951,
		"lon": -1.00234477
	},
	{
		"name": "The Cow and Calf",
		"area": "Sheffield",
		"sublocation": "Grenoside",
		"address": "88 Skew Hill Lane",
		"postcode": "S35 8QX",
		"lat": 53.43694456,
		"lon": -1.5037029
	},
	{
		"name": "The Flying Dutchman",
		"area": "Harrogate",
		"sublocation": "",
		"address": "Summerbridge",
		"postcode": "HG3 4HP",
		"lat": 54.05718518,
		"lon": -1.69321437
	},
	{
		"name": "The Greyhound Inn",
		"area": "Saxton",
		"sublocation": "",
		"address": "Main Street",
		"postcode": "LS24 9PY",
		"lat": 53.82584976,
		"lon": -1.27820406
	},
	{
		"name": "The Holly Bush",
		"area": "Doncaster",
		"sublocation": "Edenthorpe",
		"address": "Church Balk",
		"postcode": "DN3 2PR",
		"lat": 53.55785106,
		"lon": -1.07576986
	},
	{
		"name": "The Horse and Jockey Inn",
		"area": "Ossett",
		"sublocation": "",
		"address": "18 Dale Street",
		"postcode": "WF5 9BT",
		"lat": 53.68070432,
		"lon": -1.5793598
	},
	{
		"name": "The Linthorpe Hotel",
		"area": "Middlesbrough",
		"sublocation": "",
		"address": "The Crescent",
		"postcode": "TS5 6SQ",
		"lat": 54.55690273,
		"lon": -1.24700783
	},
	{
		"name": "Goose and Cowslip",
		"area": "Wakefield",
		"sublocation": "New Crofton",
		"address": "1 Santingley Lane",
		"postcode": "WF4 1NG",
		"lat": 53.65302128,
		"lon": -1.42221991
	},
	{
		"name": "The Malt Shovel Inn",
		"area": "York",
		"sublocation": "",
		"address": "Oswaldkirk",
		"postcode": "YO62 5XT",
		"lat": 54.20343737,
		"lon": -1.04609402
	},
	{
		"name": "The Mill Inn",
		"area": "Cheltenham",
		"sublocation": "",
		"address": "Withington",
		"postcode": "GL54 4BE",
		"lat": 51.83696897,
		"lon": -1.955116
	},
	{
		"name": "The New Broom",
		"area": "Rotherham",
		"sublocation": "",
		"address": "Broom Valley Road",
		"postcode": "S60 2QY",
		"lat": 53.4190517,
		"lon": -1.34061118
	},
	{
		"name": "The Oak Tree",
		"area": "Richmond",
		"sublocation": "Catterick Village",
		"address": "Low Green",
		"postcode": "DL10 7LU",
		"lat": 54.37498051,
		"lon": -1.63349806
	},
	{
		"name": "The Old Crown",
		"area": "Gloucester",
		"sublocation": "",
		"address": "81-83 Westgate Street",
		"postcode": "GL1 2PG",
		"lat": 51.86693365,
		"lon": -2.24933555
	},
	{
		"name": "Old Mother Red Cap",
		"area": "Sheffield",
		"sublocation": "Bradway",
		"address": "87 Everard Avenue",
		"postcode": "S17 4LY",
		"lat": 53.31849392,
		"lon": -1.51626637
	},
	{
		"name": "The Rugby Tavern",
		"area": "Hull",
		"sublocation": "",
		"address": "5, Dock Street",
		"postcode": "HU1 3DL",
		"lat": 53.74516402,
		"lon": -0.33812483
	},
	{
		"name": "The Savile Arms",
		"area": "Newark",
		"sublocation": "Eakring",
		"address": "Bilsthorpe Road",
		"postcode": "NG22 0DG",
		"lat": 53.15374491,
		"lon": -0.99740913
	},
	{
		"name": "The Six Bells",
		"area": "York",
		"sublocation": "Strensall",
		"address": "Ox Carr Lane",
		"postcode": "YO32 5TD",
		"lat": 54.02824884,
		"lon": -1.03981086
	},
	{
		"name": "The Star Inn",
		"area": "Wakefield",
		"sublocation": "Netherton",
		"address": "211 Netherton Lane",
		"postcode": "WF4 4HJ",
		"lat": 53.64445842,
		"lon": -1.57915864
	},
	{
		"name": "New Inn (formery The Swordsman)",
		"area": "Stamford Bridge",
		"sublocation": "",
		"address": "12 The Square",
		"postcode": "YO41 1AF ",
		"lat": 53.99119881,
		"lon": -0.91545292
	},
	{
		"name": "The Trafalgar Bay",
		"area": "York",
		"sublocation": "",
		"address": "7, Nunnery Lane",
		"postcode": "YO23 1AB",
		"lat": 53.9544346,
		"lon": -1.08878263
	},
	{
		"name": "The Travellers Rest",
		"area": "Sheffield",
		"sublocation": "",
		"address": "93 Langsett Road South",
		"postcode": "S35 0GY",
		"lat": 53.43341006,
		"lon": -1.53624346
	},
	{
		"name": "The White House",
		"area": "Pontefract",
		"sublocation": "Featherstone",
		"address": "Pontefract Road",
		"postcode": "WF7 5HG",
		"lat": 53.6744299,
		"lon": -1.34755542
	},
	{
		"name": "Ye Olde Parkgate Inn",
		"area": "Knutsford",
		"sublocation": "Over Peover",
		"address": "Stocks Lane",
		"postcode": "WA16 8TU",
		"lat": 53.26177949,
		"lon": -2.32228895
	},
	{
		"name": "Ye Old Blue Bell",
		"area": "Hull",
		"sublocation": "",
		"address": "Market Place",
		"postcode": "HU1 1RQ",
		"lat": 53.74238333,
		"lon": -0.33360799
	},
	{
		"name": "The Wheel Inn",
		"area": "Wakefield",
		"sublocation": "Wrenthorpe",
		"address": "282 Bradford Road",
		"postcode": "WF2 0LY",
		"lat": 53.70400276,
		"lon": -1.5201328
	},
	{
		"name": "The Buckles Inn",
		"area": "York",
		"sublocation": "Bilbrough",
		"address": "Tadcaster Road",
		"postcode": "YO23 3PW",
		"lat": 53.91507563,
		"lon": -1.17560037
	},
	{
		"name": "The Crystal Palace",
		"area": "York",
		"sublocation": "",
		"address": "66-68 Holgate Road",
		"postcode": "YO24 4AB",
		"lat": 53.95379066,
		"lon": -1.0970036
	},
	{
		"name": "The Star Inn",
		"area": "Mexborough",
		"sublocation": "",
		"address": "Harlington Road",
		"postcode": "S64 0DF",
		"lat": 53.49740751,
		"lon": -1.27955475
	},
	{
		"name": "The Doo'Cot Roadhouse",
		"area": "Edinburgh",
		"sublocation": "",
		"address": "731, Ferry Road",
		"postcode": "EH4 2UA",
		"lat": 55.96666525,
		"lon": -3.25113662
	},
	{
		"name": "The Red Lion",
		"area": "Doncaster",
		"sublocation": "Conisbrough",
		"address": "Sheffield Road",
		"postcode": "DN12 2BY",
		"lat": 53.47880506,
		"lon": -1.22870811
	},
	{
		"name": "The Tankard Inn",
		"area": "York",
		"sublocation": "Rufforth",
		"address": "Wetherby Road",
		"postcode": "YO23 3QF",
		"lat": 53.95520559,
		"lon": -1.19397887
	},
	{
		"name": "The Gamecock Hotel",
		"area": "Doncaster",
		"sublocation": "Harworth",
		"address": "117 Bawtry Road",
		"postcode": "DN11 8NT",
		"lat": 53.42196975,
		"lon": -1.06526502
	},
	{
		"name": "The Ridgewood",
		"area": "Doncaster",
		"sublocation": "Edenthorpe",
		"address": "Thorne Road",
		"postcode": "DN3 2JD",
		"lat": 53.5521477,
		"lon": -1.06892892
	},
	{
		"name": "The Spread Eagle",
		"area": "Wakefield",
		"sublocation": "Wragby",
		"address": "Doncaster Road",
		"postcode": "WF4 1QX",
		"lat": 53.64857995,
		"lon": -1.37816884
	},
	{
		"name": "The Manor",
		"area": "Rotherham",
		"sublocation": "Maltby",
		"address": "Braithwell Road",
		"postcode": "S66 8JT",
		"lat": 53.42929606,
		"lon": -1.20735773
	},
	{
		"name": "The Lumley Arms",
		"area": "Rotherham",
		"sublocation": "Maltby",
		"address": "Tickhill Road",
		"postcode": "S66 7PW",
		"lat": 53.42120732,
		"lon": -1.18613341
	},
	{
		"name": "The Fox & Hounds",
		"area": "Boston Spa",
		"sublocation": "",
		"address": "286 High Street",
		"postcode": "LS23 6AJ",
		"lat": 53.90182066,
		"lon": -1.33766343
	},
	{
		"name": "The Admiral Hawke",
		"area": "Boston Spa",
		"sublocation": "",
		"address": "252 High Street",
		"postcode": "LS23 6AJ",
		"lat": 53.90279252,
		"lon": -1.34057899
	},
	{
		"name": "The Eston Hotel",
		"area": "Middlesbrough",
		"sublocation": "Eston",
		"address": "Fabian Road",
		"postcode": "TS6 9BB",
		"lat": 54.56510818,
		"lon": -1.15681319
	},
	{
		"name": "The Victoria Social Club",
		"area": "Doncaster",
		"sublocation": "Arksey",
		"address": "4 Ings Lane",
		"postcode": "DN5 0SZ",
		"lat": 53.55519706,
		"lon": -1.1257988
	},
	{
		"name": "The Radcliffe Arms",
		"area": "Harrogate",
		"sublocation": "Folifoot",
		"address": "Pannal Road",
		"postcode": "HG3 1DR",
		"lat": 53.968522,
		"lon": -1.48169269
	},
	{
		"name": "The Harewood Arms Hotel",
		"area": "Harrogate",
		"sublocation": "Harewood",
		"address": "29 Harrogate Road",
		"postcode": "LS17 9LH",
		"lat": 53.89937274,
		"lon": -1.5102904
	},
	{
		"name": "The Red Bear Hotel",
		"area": "Sherburn in Elmet",
		"sublocation": "",
		"address": "4 Low Street",
		"postcode": "LS25 6BG",
		"lat": 53.79732864,
		"lon": -1.25195881
	},
	{
		"name": "The Blue Bell",
		"area": "Manchester",
		"sublocation": "Levenshulme",
		"address": "170 Barlow Road",
		"postcode": "M19 3HF",
		"lat": 53.44515731,
		"lon": -2.18431612
	},
	{
		"name": "The Cross Keys Inn",
		"area": "York",
		"sublocation": "Stillingfleet",
		"address": "Cawood Road",
		"postcode": "YO19 6SB",
		"lat": 53.859371,
		"lon": -1.09738578
	},
	{
		"name": "The Crows Nest Hotel",
		"area": "Cleethorpes",
		"sublocation": "",
		"address": "Balmoral Road",
		"postcode": "DN35 9ND",
		"lat": 53.55168389,
		"lon": -0.04841944
	},
	{
		"name": "The Marquis Of Granby",
		"area": "Durham",
		"sublocation": "Framwellgate Moor",
		"address": "Front Street",
		"postcode": "DH1 5BL",
		"lat": 54.79612502,
		"lon": -1.58999761
	},
	{
		"name": "The Black Dog",
		"area": "Rochdale",
		"sublocation": "",
		"address": "Rooley Moor Road",
		"postcode": "OL12 7JG",
		"lat": 53.63116667,
		"lon": -2.18663355
	},
	{
		"name": "The Open Hearth",
		"area": "Scunthorpe",
		"sublocation": "",
		"address": "Warley Road",
		"postcode": "DN16 1QX",
		"lat": 53.57177864,
		"lon": -0.63266625
	},
	{
		"name": "The Queen Bess",
		"area": "Scunthorpe",
		"sublocation": "",
		"address": "Derwent Road",
		"postcode": "DN16 2PE",
		"lat": 53.56571466,
		"lon": -0.63095232
	},
	{
		"name": "The Sherpa Hotel",
		"area": "Scunthorpe",
		"sublocation": "",
		"address": "Grange Lane South",
		"postcode": "DN16 3BJ",
		"lat": 53.56104064,
		"lon": -0.63791533
	},
	{
		"name": "Alpine Gasthof",
		"area": "Rochdale",
		"sublocation": "",
		"address": "164 Whitworth Road",
		"postcode": "OL12 0JG",
		"lat": 53.62623107,
		"lon": -2.1561261
	},
	{
		"name": "The Valley Inn",
		"area": "Bradford",
		"sublocation": "Drighlington",
		"address": "68 Whitehall Road",
		"postcode": "BD11 1NB",
		"lat": 53.76357575,
		"lon": -1.64860387
	},
	{
		"name": "The Golden Lion Hotel",
		"area": "Saltburn By The Sea",
		"sublocation": "Loftus",
		"address": "85 High Street",
		"postcode": "TS13 4HG",
		"lat": 54.55358604,
		"lon": -0.88493605
	},
	{
		"name": "Robert Raikes's House",
		"area": "Gloucester",
		"sublocation": "",
		"address": "36/38 Southgate Street",
		"postcode": "GL1 2DR",
		"lat": 51.86444757,
		"lon": -2.24732658
	},
	{
		"name": "Kingsway Hotel",
		"area": "Rochdale",
		"sublocation": "",
		"address": "125 Kingsway",
		"postcode": "OL16 5HS",
		"lat": 53.60717195,
		"lon": -2.13658085
	},
	{
		"name": "The Red Grouse",
		"area": "Sheffield",
		"sublocation": "Stocksbridge",
		"address": "Spink Hall Lane",
		"postcode": "S36 1FL",
		"lat": 53.47647996,
		"lon": -1.59749707
	},
	{
		"name": "Highfield House",
		"area": "Scunthorpe",
		"sublocation": "",
		"address": "Shelford Street",
		"postcode": "DN15 6NT",
		"lat": 53.58980139,
		"lon": -0.64966073
	},
	{
		"name": "The Windmill Inn",
		"area": "Pontefract",
		"sublocation": "",
		"address": "Woolmarket",
		"postcode": "WF8 1AZ",
		"lat": 53.6924311,
		"lon": -1.31028076
	},
	{
		"name": "The Crown Inn",
		"area": "York",
		"sublocation": "",
		"address": "Bolton Percy",
		"postcode": "YO23 7AG",
		"lat": 53.86457745,
		"lon": -1.1938246
	},
	{
		"name": "The Moorgate",
		"area": "Leeds",
		"sublocation": "Kippax",
		"address": "Leeds Road",
		"postcode": "LS25 7EP",
		"lat": 53.77379466,
		"lon": -1.37387594
	},
	{
		"name": "White Gates Inn",
		"area": "Hyde",
		"sublocation": "",
		"address": "Manchester Road",
		"postcode": "SK14 2BT",
		"lat": 53.4531848,
		"lon": -2.08967706
	},
	{
		"name": "The Junction Inn",
		"area": "Oldham",
		"sublocation": "Royton",
		"address": "221 Rochdale Road",
		"postcode": "OL2 5RA",
		"lat": 53.57017154,
		"lon": -2.12599953
	},
	{
		"name": "The Flower of the Valley",
		"area": "Rochdale",
		"sublocation": "",
		"address": "122, Halifax Road",
		"postcode": "OL16 2NJ",
		"lat": 53.6270105,
		"lon": -2.14216789
	},
	{
		"name": "The Crown Inn",
		"area": "Glossop",
		"sublocation": "",
		"address": "142 Victoria Street",
		"postcode": "SK13 8JF",
		"lat": 53.43886828,
		"lon": -1.95220312
	},
	{
		"name": "The Royal Oak",
		"area": "Oldham",
		"sublocation": "Shaw",
		"address": "Oak Croft, Shawcroft Close",
		"postcode": "OL2 7DA ",
		"lat": 53.5724651,
		"lon": -2.10266431
	},
	{
		"name": "The Pleasant Inn",
		"area": "Oldham",
		"sublocation": "Royton",
		"address": "730, Rochdale Road",
		"postcode": "OL2 6XQ",
		"lat": 53.58115882,
		"lon": -2.13519682
	},
	{
		"name": "The Old Bulls Head",
		"area": "Oldham",
		"sublocation": "High Crompton, Shaw",
		"address": "Rochdale Road",
		"postcode": "OL2 7PD",
		"lat": 53.58450747,
		"lon": -2.11313297
	},
	{
		"name": "The Roebuck Hotel",
		"area": "Rochdale",
		"sublocation": "",
		"address": "Yorkshire Street",
		"postcode": "OL16 1BH",
		"lat": 53.61741775,
		"lon": -2.15855887
	},
	{
		"name": "The Commercial Inn",
		"area": "Oldham",
		"sublocation": "Shaw",
		"address": "30, Smallbrook Road",
		"postcode": "OL2 7UH",
		"lat": 53.58500584,
		"lon": -2.09133466
	},
	{
		"name": "The Higher Bird in Hand",
		"area": "Rochdale",
		"sublocation": "Newhey",
		"address": "113 Huddersfield Road",
		"postcode": "OL16 3QG",
		"lat": 53.60292906,
		"lon": -2.09121128
	},
	{
		"name": "The Slip Inn",
		"area": "Rochdale",
		"sublocation": "Milnrow",
		"address": "Newhey Road",
		"postcode": "OL16 3PS",
		"lat": 53.60569988,
		"lon": -2.10443993
	},
	{
		"name": "The Lower Bird in Hand",
		"area": "Rochdale",
		"sublocation": "Newhey",
		"address": "41 Huddersfield Road",
		"postcode": "OL16 3QZ",
		"lat": 53.60175287,
		"lon": -2.09400078
	},
	{
		"name": "The Grapes Inn",
		"area": "Rochdale",
		"sublocation": "Heywood",
		"address": "Peel Lane",
		"postcode": "OL10 4PR",
		"lat": 53.59607841,
		"lon": -2.22884884
	},
	{
		"name": "The Riflemans Arms",
		"area": "Rochdale",
		"sublocation": "",
		"address": "11, Mizzy Road",
		"postcode": "OL12 6HW",
		"lat": 53.62641718,
		"lon": -2.16285308
	},
	{
		"name": "The Star Inn",
		"area": "Rochdale",
		"sublocation": "Norden",
		"address": "Edenfield Road",
		"postcode": "OL12 7PD",
		"lat": 53.62300185,
		"lon": -2.19135424
	},
	{
		"name": "The Nelson Hotel",
		"area": "Rochdale",
		"sublocation": "",
		"address": "131 Drake Street",
		"postcode": "OL16 1QB",
		"lat": 53.61249963,
		"lon": -2.15637287
	},
	{
		"name": "The Bridge Inn",
		"area": "Rochdale",
		"sublocation": "",
		"address": "Calf Hey South, Well i'th Lane",
		"postcode": "OL11 2JS",
		"lat": 53.60295452,
		"lon": -2.14726408
	},
	{
		"name": "The Brownhill Hotel",
		"area": "Rochdale",
		"sublocation": "",
		"address": "Heights Lane",
		"postcode": "OL12 0PX",
		"lat": 53.62117716,
		"lon": -2.1612223
	},
	{
		"name": "The Horse & Jockey",
		"area": "Rochdale",
		"sublocation": "",
		"address": "1-3, Well i'th Lane",
		"postcode": "OL11 1AU",
		"lat": 53.60529246,
		"lon": -2.1491765
	},
	{
		"name": "The Yew Tree",
		"area": "Rochdale",
		"sublocation": "",
		"address": "Oldham Road",
		"postcode": "OL11 2AZ",
		"lat": 53.59029175,
		"lon": -2.14093943
	},
	{
		"name": "The White Lion",
		"area": "Rochdale",
		"sublocation": "Norden",
		"address": "942, Edenfield Road",
		"postcode": "OL12 7SS",
		"lat": 53.62928507,
		"lon": -2.22418716
	},
	{
		"name": "The Cole Street Sports and Social Club",
		"area": "Scunthorpe",
		"sublocation": "",
		"address": "Cole Street",
		"postcode": "DN15 6QT",
		"lat": 53.58983483,
		"lon": -0.64571788
	},
	{
		"name": "The Pig and Whistle",
		"area": "Scunthorpe",
		"sublocation": "",
		"address": "Winterton Road",
		"postcode": "DN15 0DH",
		"lat": 53.59408381,
		"lon": -0.6436043
	},
	{
		"name": "The Coach and Horses",
		"area": "Salford",
		"sublocation": "Weaste",
		"address": "350 Eccles New Road",
		"postcode": "M5 2WU",
		"lat": 53.48182731,
		"lon": -2.30374148
	},
	{
		"name": "The Pretoria Sports and Social Club",
		"area": "Pontefract",
		"sublocation": "South Elmsall",
		"address": "45 Westfield Lane",
		"postcode": "WF9 2QB",
		"lat": 53.59325284,
		"lon": -1.29046729
	},
	{
		"name": "The Prince of Wales",
		"area": "Salford",
		"sublocation": "",
		"address": "230 Lower Broughton Road",
		"postcode": "M7 2JS",
		"lat": 53.49581662,
		"lon": -2.26756116
	},
	{
		"name": "The Bay Horse",
		"area": "Rochdale",
		"sublocation": "",
		"address": "260, Oldham Road",
		"postcode": "OL11 2ER",
		"lat": 53.60263621,
		"lon": -2.14624484
	},
	{
		"name": "The Blue Bell Hotel",
		"area": "Milnthorpe",
		"sublocation": "Heversham",
		"address": "Princes Way",
		"postcode": "LA7 7EE",
		"lat": 54.24348297,
		"lon": -2.77649959
	},
	{
		"name": "The Red Lion",
		"area": "Bradford",
		"sublocation": "Girlington",
		"address": "589 Thornton Road",
		"postcode": "BD8 9RA",
		"lat": 53.79886215,
		"lon": -1.79216107
	},
	{
		"name": "The Spinners Arms",
		"area": "Oldham",
		"sublocation": "Hollinwood",
		"address": "287, Manchester Road",
		"postcode": "OL8 4RF",
		"lat": 53.52235265,
		"lon": -2.14174141
	},
	{
		"name": "The Speke Sports & Social Club",
		"area": "Speke",
		"sublocation": "",
		"address": "Bramhall Close",
		"postcode": "L24 2TH",
		"lat": 53.34058498,
		"lon": -2.83680906
	},
	{
		"name": "The Ebor Inn",
		"area": "York",
		"sublocation": "Bishopthorpe",
		"address": "Main Street",
		"postcode": "YO23 2RB",
		"lat": 53.92161371,
		"lon": -1.09579255
	},
	{
		"name": "The Marton Social Club",
		"area": "Blackpool",
		"sublocation": "Marton",
		"address": "Daggers Hall Lane",
		"postcode": "FY4 4AX",
		"lat": 53.79659039,
		"lon": -3.02929243
	},
	{
		"name": "The Cambridge Hotel",
		"area": "Middlesbrough",
		"sublocation": "Linthorpe",
		"address": "161 Cambridge Road",
		"postcode": "TS5 5HL",
		"lat": 54.55424558,
		"lon": -1.26171131
	},
	{
		"name": "The Black Horse Hotel",
		"area": "Bradford",
		"sublocation": "Low Moor",
		"address": "2 Lockwood Street",
		"postcode": "BD12 0LS",
		"lat": 53.75096752,
		"lon": -1.75247242
	},
	{
		"name": "All Saints Brewery Inn",
		"area": "Stamford",
		"sublocation": "",
		"address": "22 All Saints Street",
		"postcode": "PE9 2PA",
		"lat": 52.65208521,
		"lon": -0.48141648
	},
	{
		"name": "The Commercial Hotel",
		"area": "Huddersfield",
		"sublocation": "",
		"address": "62 New Street",
		"postcode": "HD1 2BW",
		"lat": 53.64452316,
		"lon": -1.78337146
	},
	{
		"name": "The Three Tuns Hotel",
		"area": "Chester-Le-Street",
		"sublocation": "Birtley",
		"address": "Durham Road",
		"postcode": "DH3 1NE",
		"lat": 54.90213956,
		"lon": -1.57799204
	},
	{
		"name": "Corporation Brewery Taps",
		"area": "Doncaster",
		"sublocation": "",
		"address": "135 Cleveland Street",
		"postcode": "DN1 3AR",
		"lat": 53.51906765,
		"lon": -1.13717367
	},
	{
		"name": "The Colliers Arms",
		"area": "Elland",
		"sublocation": "",
		"address": "66, Park Road",
		"postcode": "HX5 9HZ",
		"lat": 53.69469263,
		"lon": -1.83193018
	},
	{
		"name": "St James Bowling Club",
		"area": "Chorley",
		"sublocation": "",
		"address": "Eaves Lane",
		"postcode": "PR6 0PX",
		"lat": 53.65079522,
		"lon": -2.61737486
	},
	{
		"name": "The George & Vulture",
		"area": "London",
		"sublocation": "Fenchurch Street",
		"address": "3 Castle Court",
		"postcode": "EC3V 9DL",
		"lat": 51.51322103,
		"lon": -0.085965
	},
	{
		"name": "The Edmund Arms",
		"area": "Barnsley",
		"sublocation": "Worsbrough",
		"address": "25 Worsbrough Road",
		"postcode": "S70 5LW",
		"lat": 53.51931484,
		"lon": -1.47468944
	},
	{
		"name": "The Waggon and Horses",
		"area": "Knottingley",
		"sublocation": "Fairburn",
		"address": "Great North Road",
		"postcode": "WF11 9JY",
		"lat": 53.74578105,
		"lon": -1.28464957
	},
	{
		"name": "The Red Lion (freehouse)",
		"area": "Wetherby",
		"sublocation": "Bramham",
		"address": "The Square",
		"postcode": "LS23 6QU",
		"lat": 53.88050517,
		"lon": -1.35507902
	},
	{
		"name": "The Crown Inn",
		"area": "Wetherby",
		"sublocation": "",
		"address": "25 High Street",
		"postcode": "LS22 6LR",
		"lat": 53.92778893,
		"lon": -1.38576868
	},
	{
		"name": "The Royal Oak",
		"area": "Jarrow",
		"sublocation": "",
		"address": "117 - 121 Grange Road",
		"postcode": "NE32 3QW",
		"lat": 54.98172632,
		"lon": -1.48540218
	},
	{
		"name": "Prince Of Wales Tavern",
		"area": "North Shields",
		"sublocation": "",
		"address": "2 Lidell Street",
		"postcode": "NE30 1HE",
		"lat": 55.00718814,
		"lon": -1.44107331
	},
	{
		"name": "White House",
		"area": "Manchester",
		"sublocation": "Denton",
		"address": "170 Ashton Road",
		"postcode": "M34 3JD",
		"lat": 53.46204355,
		"lon": -2.11660375
	},
	{
		"name": "White House",
		"area": "Oldham",
		"sublocation": "",
		"address": "Henshaw Street",
		"postcode": "OL1 3EN",
		"lat": 53.55084968,
		"lon": -2.1107914
	},
	{
		"name": "Viking Hotel",
		"area": "Middlesbrough",
		"sublocation": "",
		"address": "25 Broughton Avenue",
		"postcode": "TS4 3PX",
		"lat": 54.54359524,
		"lon": -1.21604134
	},
	{
		"name": "Brown Hare",
		"area": "Leeds",
		"sublocation": "",
		"address": "388, Harehills Lane",
		"postcode": "LS9 6JF",
		"lat": 53.8059032,
		"lon": -1.50525053
	},
	{
		"name": "Fighting Cocks",
		"area": "Rotherham",
		"sublocation": "Rawmarsh",
		"address": "Claypits Lane",
		"postcode": "S62 5JT",
		"lat": 53.46480763,
		"lon": -1.32710358
	},
	{
		"name": "Engineer's Arms",
		"area": "Barnsley",
		"sublocation": "Higham",
		"address": "Higham Common Road",
		"postcode": "S75 1PF",
		"lat": 53.56136405,
		"lon": -1.53285583
	},
	{
		"name": "White Hart Hotel",
		"area": "Newark",
		"sublocation": "Ollerton",
		"address": "Market Place",
		"postcode": "NG22 9BL",
		"lat": 53.19902754,
		"lon": -1.02287402
	},
	{
		"name": "Fountain Inn",
		"area": "Leeds",
		"sublocation": "Morley",
		"address": "Queen Street",
		"postcode": "LS27 9EB",
		"lat": 53.74306225,
		"lon": -1.59953555
	},
	{
		"name": "Blands Arms",
		"area": "Leeds",
		"sublocation": "Micklefield",
		"address": "Great North Road",
		"postcode": "LS25 4AQ",
		"lat": 53.79421869,
		"lon": -1.32743885
	},
	{
		"name": "Ryhill Village Social Club",
		"area": "Wakefield",
		"sublocation": "Ryhill",
		"address": "73, Station Road",
		"postcode": "WF4 2BP",
		"lat": 53.62352522,
		"lon": -1.42184456
	},
	{
		"name": "Snydale Road Sports & Social Club",
		"area": "Barnsley",
		"sublocation": "Cudworth",
		"address": "Methley Street",
		"postcode": "S72 8JU ",
		"lat": 53.57488437,
		"lon": -1.41437729
	},
	{
		"name": "Havercroft Sports & Social Club",
		"area": "Wakefield",
		"sublocation": "Havercroft",
		"address": "83 Cow Lane",
		"postcode": "WF4 2HF ",
		"lat": 53.62396269,
		"lon": -1.40442898
	},
	{
		"name": "Cudworth Industrial Sports & Social Club",
		"area": "Barnsley",
		"sublocation": "Cudworth",
		"address": "1, James Street",
		"postcode": "S72 8AN",
		"lat": 53.5851794,
		"lon": -1.40995969
	},
	{
		"name": "Red Rum",
		"area": "Barnsley",
		"sublocation": "Grimethorpe",
		"address": "Cemetery Road",
		"postcode": "S72 7NR",
		"lat": 53.5733188,
		"lon": -1.37358895
	},
	{
		"name": "Lundwood Sports & Social Club",
		"area": "Barnsley",
		"sublocation": "",
		"address": "Pontefract Road",
		"postcode": "S71 5PN",
		"lat": 53.55882293,
		"lon": -1.43757035
	},
	{
		"name": "Pinfold Hotel",
		"area": "Barnsley",
		"sublocation": "Cudworth",
		"address": "Darfield Road",
		"postcode": "S72 8HF",
		"lat": 53.57141391,
		"lon": -1.41041568
	},
	{
		"name": "Shoulder of Mutton",
		"area": "York",
		"sublocation": "Appleton Roebuck",
		"address": "Chapel Green",
		"postcode": "YO23 7DP",
		"lat": 53.87602413,
		"lon": -1.15681549
	},
	{
		"name": "Roebuck Inn",
		"area": "York",
		"sublocation": "Appleton Roebuck",
		"address": "Appleton House, Main Street",
		"postcode": "YO23 7DG",
		"lat": 53.87296745,
		"lon": -1.16061886
	},
	{
		"name": "Rockingham Arms",
		"area": "Corby",
		"sublocation": "",
		"address": "Studfall Avenue",
		"postcode": "NN17 1LQ",
		"lat": 52.49544573,
		"lon": -0.70666303
	},
	{
		"name": "Hop Pole Hotel",
		"area": "Newark",
		"sublocation": "Ollerton",
		"address": "Main Street",
		"postcode": "NG22 9AD",
		"lat": 53.19993373,
		"lon": -1.0226809
	},
	{
		"name": "Station Hotel",
		"area": "Leeds",
		"sublocation": "Hunslet",
		"address": "67 Hillidge Road",
		"postcode": "LS10 1DQ",
		"lat": 53.77928198,
		"lon": -1.53599804
	},
	{
		"name": "Avenel Club ",
		"area": "Bradford",
		"sublocation": "Allerton",
		"address": "1, Avenel Terrace",
		"postcode": "BD15 7LX",
		"lat": 53.80185929,
		"lon": -1.81984146
	},
	{
		"name": "Brierley Village club",
		"area": "Barnsley",
		"sublocation": "Brierley",
		"address": "Church Street",
		"postcode": "S72 9JE",
		"lat": 53.59379409,
		"lon": -1.38066595
	},
	{
		"name": "Ackworth Village Club",
		"area": "Pontefract",
		"sublocation": "Ackworth Moor Top",
		"address": "Stonecliffe House, 52 Wakefield Road",
		"postcode": "WF7 7AB",
		"lat": 53.64100197,
		"lon": -1.34782364
	},
	{
		"name": "Corporation Inn",
		"area": "Rochdale",
		"sublocation": "",
		"address": "55 Milkstone Road",
		"postcode": "OL11 1EB",
		"lat": 53.61018755,
		"lon": -2.1568503
	},
	{
		"name": "White Rose",
		"area": "Doncaster",
		"sublocation": "Rossington",
		"address": "Grange Lane",
		"postcode": "DN11 0QZ",
		"lat": 53.47333828,
		"lon": -1.08013247
	},
	{
		"name": "Redhill Sports and Social Club",
		"area": "Castleford",
		"sublocation": "",
		"address": "37 Redhill Drive",
		"postcode": "WF10 3EB",
		"lat": 53.72100562,
		"lon": -1.32796054
	},
	{
		"name": "York Street Working Mens Club & Institute",
		"area": "Wakefield",
		"sublocation": "",
		"address": "15 Upper York Street",
		"postcode": "WF1 3LQ",
		"lat": 53.68633996,
		"lon": -1.49924373
	},
	{
		"name": "Arlington Hotel",
		"area": "Saltburn-By-The-Sea",
		"sublocation": "Loftus",
		"address": "Arlington Street",
		"postcode": "TS13 4LA",
		"lat": 54.55403947,
		"lon": -0.88085105
	},
	{
		"name": "Kingfisher Hotel",
		"area": "Redcar",
		"sublocation": "",
		"address": "Farndale Square",
		"postcode": "TS10 5HN",
		"lat": 54.6060007,
		"lon": -1.08840843
	},
	{
		"name": "Engineers Arms",
		"area": "Heywood",
		"sublocation": "",
		"address": "13, Aspinall Street",
		"postcode": "OL10 4HL",
		"lat": 53.59352665,
		"lon": -2.21253966
	},
	{
		"name": "Adam & Eve",
		"area": "South Shields",
		"sublocation": "",
		"address": "2 Frederick Street",
		"postcode": "NE33 5EA",
		"lat": 54.98949367,
		"lon": -1.43729677
	},
	{
		"name": "Windmill Hotel",
		"area": "Manchester",
		"sublocation": "Pendlebury, Swinton",
		"address": "690 Bolton Road",
		"postcode": "M27 8FH",
		"lat": 53.51906685,
		"lon": -2.33314385
	},
	{
		"name": "The Turnpike",
		"area": "Manchester",
		"sublocation": "",
		"address": "522 Wilmslow Road",
		"postcode": "M20 4BT",
		"lat": 53.4317929,
		"lon": -2.22873216
	},
	{
		"name": "Bentley North End Sports & Social Club",
		"area": "Doncaster",
		"sublocation": "Bentley",
		"address": "Askern Road",
		"postcode": "DN5 0EP",
		"lat": 53.55285827,
		"lon": -1.14726146
	},
	{
		"name": "Half Way House Inn",
		"area": "Bradford",
		"sublocation": "Queensbury",
		"address": "36, Sandbeds",
		"postcode": "BD13 1AF",
		"lat": 53.76913178,
		"lon": -1.84145739
	},
	{
		"name": "Ward Green Working Men's Club",
		"area": "Barnsley",
		"sublocation": "Worsbrough",
		"address": "129, Mount Vernon Road",
		"postcode": "S70 4HH",
		"lat": 53.53587588,
		"lon": -1.47578915
	},
	{
		"name": "Falcon Inn",
		"area": "Tadcaster",
		"sublocation": "",
		"address": "10 Chapel Street",
		"postcode": "LS24 9AR",
		"lat": 53.88388381,
		"lon": -1.26353522
	},
	{
		"name": "The Saxon Hotel",
		"area": "Sheffield",
		"sublocation": "Kiveton Park ",
		"address": "Station Road",
		"postcode": "S26 6QP",
		"lat": 53.34152021,
		"lon": -1.25605454
	},
	{
		"name": "The White Bear (Freehouse selling Samuel Smith's beer)",
		"area": "York",
		"sublocation": "Stillington",
		"address": "Main Street",
		"postcode": "YO61 1JU",
		"lat": 54.10278504,
		"lon": -1.10720134
	},
	{
		"name": "Rawmarsh Progressive Sports and Social Club (Titanic)",
		"area": "Rotherham",
		"sublocation": "Rawmarsh",
		"address": "Willow Garth",
		"postcode": "S62 5RB",
		"lat": 53.46422002,
		"lon": -1.33619358
	},
	{
		"name": "The Bar Ambika (Freehouse selling Samuel Smith's beer)",
		"area": "Hull",
		"sublocation": "",
		"address": "400 Beverley Road",
		"postcode": "HU5 1LW",
		"lat": 53.76419093,
		"lon": -0.35164048
	}
]